[
  {
    "id": "location1",
    "latitude": 37.5499660095739,
    "longitude": 127.122248580466,
    "title": "광나루한강공원 족구장",
    "snippet": "서울특별시 강동구 선사로 83-106",
    "district": "강동구",
    "weekdayHours": "4월~9월 / 06:00~20:0010월~다음 해 3월 / 07:00~17:00",
    "weekendHours": "4월~9월 / 06:00~20:0010월~다음 해 3월 / 07:00~17:00",
    "rentalAvailable": "가능",
    "rentalFee": "4,000원 / 2시간* 월 정액 : 75,000원"
  },
  {
    "id": "location2",
    "latitude": 37.5611349654933,
    "longitude": 127.164458877407,
    "title": "동명근린공원 족구장",
    "snippet": "서울특별시 강동구 아리수로78길 23",
    "district": "강동구",
    "weekdayHours": "09:00~18:00",
    "weekendHours": "09:00~18:00",
    "rentalAvailable": "가능",
    "rentalFee": "운영 프로그램에 따라 이용 요금 상이"
  },
  {
    "id": "location3",
    "latitude": 37.5621451216783,
    "longitude": 127.157551026519,
    "title": "샘터근린공원 족구장",
    "snippet": "서울특별시 강동구 동남로 990",
    "district": "강동구",
    "weekdayHours": "08:00~19:00",
    "weekendHours": "08:00~19:00",
    "rentalAvailable": "가능",
    "rentalFee": "무료"
  },
  {
    "id": "location4",
    "latitude": 37.6285670939924,
    "longitude": 127.038853626569,
    "title": "오동근린공원 족구장",
    "snippet": "서울특별시 강북구 번2동 산25-2",
    "district": "강북구",
    "weekdayHours": "06:00~22:00",
    "weekendHours": "06:00~22:00 / 첫째주 월요일, 신정 및 명절 연휴",
    "rentalAvailable": "가능",
    "rentalFee": "(1시간 기준) 4,000원"
  },
  {
    "id": "location5",
    "latitude": 37.5369391635005,
    "longitude": 126.843935796254,
    "title": "까치산근린공원 족구장",
    "snippet": "서울특별시 강서구 까치산로2길 95",
    "district": "강서구",
    "weekdayHours": "00:00~24:00",
    "weekendHours": "00:00~24:00",
    "rentalAvailable": "불가능",
    "rentalFee": ""
  },
  {
    "id": "location6",
    "latitude": 37.5293645718995,
    "longitude": 127.073978164616,
    "title": "뚝섬한강공원 족구장",
    "snippet": "서울특별시 광진구 강변북로 2273",
    "district": "광진구",
    "weekdayHours": "4월~9월 / 06:00~20:0010월~다음 해 3월 / 07:00~17:00",
    "weekendHours": "4월~9월 / 06:00~20:0010월~다음 해 3월 / 07:00~17:00",
    "rentalAvailable": "가능",
    "rentalFee": "4,000원 / 2시간* 월 정액 : 75,000원"
  },
  {
    "id": "location7",
    "latitude": 37.5628372373648,
    "longitude": 126.885422860585,
    "title": "난지한강공원 족구장",
    "snippet": "서울특별시 마포구 한강난지로 162",
    "district": "마포구",
    "weekdayHours": "동절기 07:00~17:00, 하절기 06:00~20:00",
    "weekendHours": "동절기 07:00~17:00, 하절기 06:00~20:00",
    "rentalAvailable": "가능",
    "rentalFee": "(2시간 기준) 4,000원* 월정기 요금 : 75,000원"
  },
  {
    "id": "location8",
    "latitude": 37.5076939718271,
    "longitude": 126.992730984132,
    "title": "반포한강공원 축구장",
    "snippet": "서울특별시 서초구 신반포로11길 40",
    "district": "서초구",
    "weekdayHours": "06:00~20:00",
    "weekendHours": "06:00~20:00",
    "rentalAvailable": "가능",
    "rentalFee": "(2시간 기준)주간 : 12,000원 / 야간 : 25,000원* 월 정기권 : 225,000원"
  },
  {
    "id": "location9",
    "latitude": 37.4811959595433,
    "longitude": 127.023433645085,
    "title": "서울시인재개발원 축구장",
    "snippet": "서울특별시 서초구 남부순환로340길 58",
    "district": "서초구",
    "weekdayHours": "09:00~17:00",
    "weekendHours": "09:00~17:00",
    "rentalAvailable": "가능",
    "rentalFee": "(2시간 기준) 100,000원"
  },
  {
    "id": "location10",
    "latitude": 37.5521231306951,
    "longitude": 127.038568106349,
    "title": "응봉체육공원 축구장",
    "snippet": "서울특별시 성동구 중랑천서자전거길 97",
    "district": "성동구",
    "weekdayHours": "06:00~22:00",
    "weekendHours": "06:00~22:00 / 신정, 설날, 추석 연휴 휴장",
    "rentalAvailable": "가능",
    "rentalFee": "(2시간 기준)평일 : 50,000원주말 및 공휴일 : 65,000원* 조명 사용료 별도"
  },
  {
    "id": "location11",
    "latitude": 37.6086202045187,
    "longitude": 127.042283674161,
    "title": "월곡인조잔디축구장",
    "snippet": "서울특별시 성북구 화랑로 13길 144",
    "district": "성북구",
    "weekdayHours": "07:00~21:00",
    "weekendHours": "07:00~21:00",
    "rentalAvailable": "가능",
    "rentalFee": "평일 : 26,000원 / 주말 : 34,000원"
  },
  {
    "id": "location12",
    "latitude": 37.5247553,
    "longitude": 127.1175232,
    "title": "송파구여성축구장",
    "snippet": "서울특별시 송파구 올림픽로 474",
    "district": "송파구",
    "weekdayHours": "09:00~18:00",
    "weekendHours": "09:00~18:00",
    "rentalAvailable": "가능",
    "rentalFee": "평일 : 50,000원주말 및 공휴일 : 65,000원"
  },
  {
    "id": "location13",
    "latitude": 37.5247553,
    "longitude": 127.1175232,
    "title": "송파시각장애인축구장",
    "snippet": "서울특별시 송파구 올림픽로 474\n",
    "district": "송파구",
    "weekdayHours": "09:00~18:00",
    "weekendHours": "09:00~18:00",
    "rentalAvailable": "가능",
    "rentalFee": "무료"
  },
  {
    "id": "location14",
    "latitude": 37.517820588578,
    "longitude": 126.970850893942,
    "title": "이촌한강공원 축구장",
    "snippet": "서울 용산구 이촌로72길 62",
    "district": "용산구",
    "weekdayHours": "4월~9월 / 06:00~20:0010월~다음 해 3월 / 07:00~17:00",
    "weekendHours": "4월~9월 / 06:00~20:0010월~다음 해 3월 / 07:00~17:00",
    "rentalAvailable": "가능",
    "rentalFee": "주간 : 12,000원 / 2시간야간 : 25,000원 / 2시간*월 정액 : 225,000원"
  }
]